Timestamp_s,Latitude_deg,Longitude_deg,Altitude_ft,Airspeed_kts,ClimbRate_fpm,Pitch_deg,Roll_deg,Heading_deg,Ctrl_Pitch_Ratio,Ctrl_Roll_Ratio,Ctrl_Yaw_Ratio,Collective_deg,Engine_Torque_Nm
0.0,-34.553989990658124,-58.4249925395286,4468.347630197182,1.8223594427108765,-2698.76611328125,-3.6727077960968018,7.091324329376221,10.036675453186035,0.7,-0.05690243727923435,-0.008029340362548829,7.0,121.66861724853516
0.05,-34.55398948479723,-58.424992059280925,4467.410568911582,1.9067189693450928,-2745.51025390625,-3.783092975616455,7.122044086456299,10.514508247375488,0.7,-0.05790588539131196,-0.017394574236210027,10.0,132.6553497314453
0.101,-34.55398903147213,-58.42499160571368,4466.626531608403,1.9813201427459717,-2784.078857421875,-3.823434352874756,7.058923244476318,10.96022891998291,0.7,-0.058018663381816514,-0.018954733779144278,11.0,111.94610595703125
0.151,-34.553988539683225,-58.424991045424726,4465.810459579341,2.065643548965454,-2824.248779296875,-3.7062299251556396,6.955814838409424,11.49850082397461,0.7,-0.05788534324440538,-0.020026955409237424,11.0,100.9925308227539
0.202,-34.55398798292017,-58.42499035173363,4464.913987513632,2.1598641872406006,-2864.833984375,-3.3107986450195312,6.936348915100098,12.337183952331543,0.7,-0.058496013049705455,-0.025051016072584108,11.0,104.55783081054688
0.252,-34.553987515069956,-58.4249897114034,4464.174857074395,2.235321044921875,-2894.245361328125,-2.718817949295044,7.0641255378723145,13.194745063781738,0.7,-0.060201608123433004,-0.028284916694542275,11.0,107.60523223876953
0.302,-34.55398704755752,-58.42498899103189,4463.443406774662,2.308645248413086,-2920.384521484375,-1.8726952075958252,7.310885429382324,14.153070449829102,0.7,-0.06287803963235904,-0.03127302128234393,11.0,110.55574798583984
0.35,-34.553986538709374,-58.42498813725824,4462.649915465154,2.3822977542877197,-2944.393310546875,-0.670889139175415,7.632896423339844,15.294976234436035,0.7,-0.06629424843511245,-0.03298575629722994,11.0,114.37982177734375
0.402,-34.55398609147278,-58.42498733684545,4461.9497421896085,2.4359939098358154,-2960.5947265625,0.6050735712051392,7.8778767585754395,16.38084602355957,0.7,-0.06901596845612526,-0.035560556660584886,11.0,119.51968383789062
0.451,-34.553985677285176,-58.4249864830718,4461.293511874974,2.4750099182128906,-2971.81005859375,1.9417780637741089,8.029118537902832,17.466535568237305,0.7,-0.0710154524854153,-0.03605440598048436,11.0,125.8869400024414
0.502,-34.55398526665408,-58.42498565597858,4460.628103593364,2.4973700046539307,-2978.29052734375,3.3850231170654297,8.111209869384766,18.639345169067383,0.7,-0.07245891858300654,-0.03909491245287957,11.0,135.8922119140625
0.551,-34.553984869349165,-58.42498472216366,4459.960105192848,2.502659797668457,-2980.83056640625,4.867669105529785,8.1671781539917,19.895030975341797,0.7,-0.07374098131073901,-0.04049995716279699,11.0,146.9266357421875
0.6,-34.553984493528226,-58.424983734987876,4459.293093161657,2.4868791103363037,-2979.217041015625,6.332032203674316,8.253464698791504,21.22097396850586,0.7,-0.07525245379006743,-0.04363007827695116,11.0,159.1037139892578
0.651,-34.55398415794959,-58.424982747812095,4458.6521273506805,2.449930429458618,-2974.060546875,7.688661575317383,8.394370079040527,22.54666519165039,0.7,-0.07722778675661433,-0.04428064059364619,11.0,170.3623809814453
0.701,-34.553983851269535,-58.424981787316746,4458.006865171716,2.394509792327881,-2966.330322265625,8.975381851196289,8.528003692626953,23.926570892333984,0.7,-0.07914309799973004,-0.04695335702816396,11.0,182.74456787109375
0.752,-34.55398358270072,-58.424980746780115,4457.368696386926,2.3175787925720215,-2956.04443359375,10.145135879516602,8.58066463470459,25.340923309326172,0.7,-0.08041686255482183,-0.04874514233633379,11.0,194.39186096191406
0.802,-34.55398334780058,-58.42497973292391,4456.721030338667,2.2175357341766357,-2943.530029296875,11.214402198791504,8.57442855834961,26.82358169555664,0.7,-0.08120666944750556,-0.0517385809487672,11.0,205.96534729003906
0.85,-34.553983154937356,-58.42497869238728,4456.085574309342,2.098541259765625,-2929.777587890625,12.145230293273926,8.594932556152344,28.32707977294922,0.7,-0.08223194461392824,-0.05267082680892109,11.0,217.06895446777344
0.902,-34.553982994764056,-58.42497767853107,4455.426677069627,1.9632633924484253,-2915.4306640625,12.988507270812988,8.707148551940918,29.931854248046875,0.7,-0.0840084920492339,-0.05574492013714015,11.0,228.3416748046875
0.952,-34.55398287468727,-58.424976664674865,4454.767962121405,1.808925747871399,-2900.517822265625,13.709598541259766,8.926020622253418,31.58371925354004,0.7,-0.08665834209605433,-0.05807351432524836,11.0,238.69900512695312
1.002,-34.553982793798276,-58.42497559745781,4454.100148299709,1.6357191801071167,-2885.3759765625,14.322196006774902,9.23332691192627,33.307518005371094,0.7,-0.09002256147004987,-0.06179043634024889,11.0,248.51193237304688
1.05,-34.553982755863025,-58.424974610282035,4453.446593738161,1.451578140258789,-2870.88671875,14.822534561157227,9.575695037841797,35.02780532836914,0.7,-0.09371097111308857,-0.0627217567987928,11.0,257.8379821777344
1.101,-34.55398276009847,-58.42497359642583,4452.763956297189,1.2555865049362183,-2857.096923828125,15.255545616149902,9.93443489074707,36.85982894897461,0.7,-0.09759647529369492,-0.0653298478359938,11.0,267.4501953125
1.15,-34.55398280914008,-58.4249725558892,4452.078824742697,1.0473676919937134,-2844.114990234375,15.611841201782227,10.268047332763672,38.743865966796875,0.7,-0.1012835277066453,-0.06899572243080099,11.0,276.8131408691406
1.202,-34.55398290430491,-58.42497154203299,4451.383767038584,0.8271846771240234,-2832.095703125,15.907781600952148,10.56960678100586,40.70518112182617,0.7,-0.10473536134738974,-0.07245486787501834,11.0,286.0632629394531
1.251,-34.55398303996697,-58.42497063489849,4450.709481824189,0.6036442518234253,-2821.5546875,16.14409065246582,10.838396072387695,42.65868377685547,0.7,-0.10796374275588924,-0.07340643837341329,11.0,294.92510986328125
1.301,-34.553983230204814,-58.42496964772271,4449.996376819909,0.37290158867836,-2812.3115234375,16.349258422851562,11.118243217468262,44.78243637084961,0.7,-0.11133987394834341,-0.07734733772122754,11.0,304.1627502441406
1.352,-34.55398346904324,-58.42496868722736,4449.281663985923,0.1374596208333969,-2804.489013671875,16.5157413482666,11.417713165283203,46.97759246826172,0.7,-0.11486047237883353,-0.0821461706021188,11.0,313.0343322753906
1.401,-34.5539837837812,-58.42496764669073,4448.502917436883,-0.12458661943674088,-2797.578857421875,16.6568546295166,11.78792953491211,49.45245361328125,0.7,-0.11911435845019744,-0.08471690585382638,11.0,322.1814880371094
1.452,-34.55398412101151,-58.42496676623666,4447.791727663018,-0.3631519079208374,-2792.845703125,16.752851486206055,12.17936897277832,51.788578033447266,0.7,-0.12341530773150584,-0.09009109877129218,11.0,330.0362548828125
1.502,-34.55398449177638,-58.42496593914343,4447.105488843285,-0.5978447794914246,-2789.5654296875,16.817333221435547,12.610639572143555,54.11459732055664,0.7,-0.1280914461176687,-0.09114359092925095,11.0,337.1045837402344
1.551,-34.55398492826884,-58.42496508536979,4446.386507597752,-0.8259004950523376,-2787.628662109375,16.856281280517578,13.113551139831543,56.62738800048828,0.7,-0.13340294835555408,-0.09646067620930446,11.0,344.2274169921875
1.602,-34.55398548088444,-58.42496415155487,4445.573818862438,-1.092261552810669,-2786.873046875,16.86460304260254,13.733016967773438,59.567901611328125,0.7,-0.1398953913381583,-0.1002106998085168,11.0,351.544189453125
1.651,-34.55398602824673,-58.4249633778225,4444.847088593058,-1.3193200826644897,-2787.476806640625,16.840532302856445,14.31678581237793,62.28564453125,0.7,-0.14593680383973417,-0.10657785567296288,11.0,357.54168701171875
1.7,-34.55398662415229,-58.42496260409013,4444.122122346424,-1.547443151473999,-2789.22314453125,16.785011291503906,14.90652847290039,65.08146667480469,0.7,-0.15209385119595134,-0.10998494527823788,11.0,362.869384765625
1.752,-34.55398726460655,-58.42496193707947,4443.401007461362,-1.7695595026016235,-2792.02392578125,16.69734764099121,15.48542308807373,67.94210815429688,0.7,-0.1582358403238746,-0.11299429772893455,11.0,367.9100646972656
1.802,-34.553987970227425,-58.42496119002753,4442.660223885439,-1.979433536529541,-2795.697265625,16.57024383544922,16.06328010559082,70.9635238647461,0.7,-0.1644502077049405,-0.11776159017533029,11.0,372.9028015136719
1.85,-34.55398874090116,-58.424960549697296,4441.90226541739,-2.1914026737213135,-2800.475830078125,16.39756202697754,16.63311767578125,74.14311218261719,0.7,-0.17064704414722184,-0.12388383602326886,11.0,377.6860656738281
1.901,-34.55398954025502,-58.42495996272791,4441.161327179521,-2.392669677734375,-2806.08642578125,16.1854305267334,17.169950485229492,77.334228515625,0.7,-0.17658993945333573,-0.12835257435842598,11.0,381.9932861328125
1.951,-34.55399046774314,-58.42495934907811,4440.348362285644,-2.6082241535186768,-2813.394287109375,15.902050971984863,17.737743377685547,80.9192123413086,0.7,-0.18309192010131495,-0.12963417120005954,11.0,386.389892578125
2.002,-34.55399141765072,-58.42495881546957,4439.556877333671,-2.790724515914917,-2820.7958984375,15.570253372192383,18.278478622436523,84.49272918701172,0.7,-0.18925253359647232,-0.13879651467450912,11.0,390.7907409667969
2.051,-34.553992358476776,-58.4249583352219,4438.805735968053,-2.9551355838775635,-2828.623046875,15.199036598205566,18.79400062561035,87.96118927001953,0.7,-0.19514947628353896,-0.14391045684843523,11.0,394.9105529785156
2.101,-34.55399336663349,-58.424957935015506,4438.029613976367,-3.116488218307495,-2837.663818359375,14.755393028259277,19.34135627746582,91.6131820678711,0.7,-0.20141505533016013,-0.14816543540961952,11.0,399.1047668457031
2.152,-34.553994391834415,-58.424957561489535,4437.265373674221,-3.264669418334961,-2847.545654296875,14.254097938537598,19.901029586791992,95.27294158935547,0.7,-0.20789327539875946,-0.1490207022393495,11.0,403.2518005371094
2.201,-34.553995529282396,-58.42495721464399,4436.442056021653,-3.3972761631011963,-2858.19970703125,13.637284278869629,20.52192497253418,99.28461456298828,0.7,-0.2149705602716044,-0.15745864929701409,11.0,407.8051452636719
2.25,-34.55399673464907,-58.4249569211593,4435.592749436386,-3.519655227661133,-2870.365966796875,12.911853790283203,21.163957595825195,103.50081634521484,0.7,-0.22232491406679727,-0.16325929468103711,11.0,412.4665832519531
2.302,-34.55399778012481,-58.424956707715886,4434.872289058752,-3.610018014907837,-2881.75390625,12.226973533630371,21.6859073638916,107.13124084472656,0.7,-0.22847871369275105,-0.1653014114571776,11.0,416.07574462890625
2.352,-34.55399917235831,-58.424956520952904,4433.931895883754,-3.6964364051818848,-2896.413330078125,11.24291706085205,22.286828994750977,111.93346405029297,0.7,-0.23576216235529818,-0.17599527817548855,11.0,421.1282043457031
2.4,-34.554000379150935,-58.42495644091162,4433.130059526302,-3.7486231327056885,-2909.675048828125,10.328228950500488,22.699983596801758,116.08460235595703,0.7,-0.24129843073959684,-0.17734016474428055,11.0,425.64007568359375
2.451,-34.554001651388305,-58.42495636087034,4432.295658150688,-3.7804038524627686,-2924.290283203125,9.317211151123047,23.020349502563477,120.44293212890625,0.7,-0.24615170780680448,-0.1839658323078336,11.0,430.1426086425781
2.502,-34.55400294267382,-58.42495638755077,4431.458127554506,-3.787461757659912,-2939.758056640625,8.254693984985352,23.227584838867188,124.85059356689453,0.7,-0.2500821727523672,-0.18998003429576124,11.0,434.53350830078125
2.552,-34.55400424177591,-58.42495644091162,4430.623018541373,-3.7679383754730225,-2956.09814453125,7.164620399475098,23.3287296295166,129.265625,0.7,-0.2532647493725535,-0.19020485118662134,11.0,438.857177734375
2.6,-34.55400559789798,-58.42495654763333,4429.757124503143,-3.7218587398529053,-2972.77392578125,6.020130157470703,23.338258743286133,133.84764099121094,0.7,-0.25568330795052385,-0.198385161869571,11.0,443.22735595703125
2.651,-34.55400698049258,-58.42495676107674,4428.878561408259,-3.645468235015869,-2990.672119140625,4.857751369476318,23.26632308959961,138.48902893066406,0.7,-0.2574655155716404,-0.20239605741004674,11.0,447.50726318359375
2.702,-34.554008380382626,-58.42495697452015,4427.9917191704735,-3.5376429557800293,-3009.55859375,3.6988542079925537,23.125503540039062,143.14646911621094,0.7,-0.2586500202462951,-0.20772600548102843,11.0,451.7126159667969
2.751,-34.55400958646845,-58.42495726800484,4427.228624782525,-3.4229214191436768,-3026.012939453125,2.7238285541534424,22.95821189880371,147.11947631835938,0.7,-0.25935309917759275,-0.20705937860550278,11.0,455.3243103027344
2.801,-34.55401103247417,-58.424957614850385,4426.312959491275,-3.2580184936523438,-3046.232177734375,1.5915114879608154,22.713790893554688,151.83164978027344,0.7,-0.2597229419088898,-0.21352638933724197,11.0,459.711181640625
2.852,-34.55401246344359,-58.42495801505678,4425.404455404729,-3.063220977783203,-3067.077880859375,0.5121856331825256,22.436389923095703,156.44549560546875,0.7,-0.2597166666943639,-0.21871392848416735,11.0,463.92315673828125
2.901,-34.55401386032119,-58.42495849530446,4424.513979308307,-2.841038942337036,-3088.3798828125,-0.49415621161460876,22.137510299682617,160.89373779296875,0.7,-0.259560641602223,-0.21683371797550377,11.0,468.0079345703125
2.95,-34.5540153028367,-58.424958948871705,4423.589266096242,-2.5943844318389893,-3110.018798828125,-1.4763087034225464,21.79979133605957,165.4202880859375,0.7,-0.25908379403643095,-0.2210387231307544,11.0,472.1504211425781
3.001,-34.554016783315234,-58.42495953584109,4422.633521634154,-2.305133581161499,-3133.573974609375,-2.419642686843872,21.412721633911133,169.99307250976562,0.7,-0.2582254011480809,-0.22349126591434176,11.0,476.3216552734375
3.052,-34.55401824312465,-58.424960176171325,4421.683321799152,-1.997728705406189,-3157.120361328125,-3.2798349857330322,20.976703643798828,174.423095703125,0.7,-0.25681590591666886,-0.2289493606818686,11.0,480.3521423339844
3.102,-34.5540196685345,-58.42496086986241,4420.7468645609915,-1.6690475940704346,-3181.10791015625,-4.04753303527832,20.487285614013672,178.6674346923828,0.7,-0.25497756269408667,-0.22666573131431078,11.0,484.33062744140625
3.152,-34.55402111663554,-58.42496148351222,4419.785890392028,-1.325028657913208,-3205.295654296875,-4.74785041809082,19.921436309814453,182.88671875,0.7,-0.25249903456200273,-0.22838240239996288,11.0,488.2190856933594
3.201,-34.55402257985687,-58.42496231060544,4418.804961998947,-0.9545832276344299,-3230.610595703125,-5.3676605224609375,19.285158157348633,187.04461669921875,0.7,-0.24938017292212103,-0.23098652496132654,11.0,491.80584716796875
3.25,-34.554023802793125,-58.424962977616104,4417.977688172832,-0.6217829585075378,-3252.9033203125,-5.8121819496154785,18.720966339111328,190.4248046875,0.7,-0.24647126481996867,-0.23121189587420887,11.0,494.5188293457031
3.302,-34.554025264882775,-58.424963778028896,4416.979760169052,-0.2302883118391037,-3278.769287109375,-6.251199722290039,18.043926239013672,194.33612060546875,0.7,-0.24290333495291586,-0.23183285072184756,11.0,497.50445556640625
3.35,-34.55402669822188,-58.424964685163395,4415.991869308054,0.17073829472064972,-3305.027587890625,-6.58432149887085,17.4195613861084,198.02224731445312,0.7,-0.23965662240694713,-0.2318772004529154,11.0,500.15997314453125
3.4,-34.55402813339334,-58.424965592297895,4414.99250483606,0.5851909518241882,-3332.072265625,-6.826501369476318,16.870548248291016,201.558837890625,0.7,-0.23693891921803917,-0.23251337915273707,11.0,502.72845458984375
3.451,-34.55402951833632,-58.42496657947367,4414.017646575347,0.9994121193885803,-3359.16455078125,-6.981467247009277,16.427532196044922,204.82330322265625,0.7,-0.23505439209647036,-0.22848526779479794,11.0,505.091552734375
3.501,-34.55403094905156,-58.424967593329875,4412.999114220962,1.4102977514266968,-3386.24365234375,-7.069121837615967,16.060956954956055,208.04214477539062,0.7,-0.23376737333223413,-0.22926588093877093,11.0,507.3860778808594
3.551,-34.55403236842754,-58.42496866054694,4411.976518167183,1.8273789882659912,-3414.084716796875,-7.093442916870117,15.779797554016113,211.08853149414062,0.7,-0.23311739638645773,-0.22898639816782207,11.0,509.46429443359375
3.602,-34.55403376831344,-58.424969727763994,4410.955459732562,2.2381322383880615,-3441.99169921875,-7.064625263214111,15.569710731506348,213.9540557861328,0.7,-0.23298263395448698,-0.2288830795438364,11.0,511.3456726074219
3.652,-34.554035127645335,-58.424970821661475,4409.951220316812,2.6363954544067383,-3469.647705078125,-6.993841171264648,15.411873817443848,216.61111450195312,0.7,-0.2332710111996027,-0.22609107589224475,11.0,513.0979614257812
3.7,-34.55403652176213,-58.42497202228067,4408.9070196617395,3.0223355293273926,-3497.156005859375,-6.884566307067871,15.278382301330566,219.21768188476562,0.7,-0.2337617246312375,-0.22647529401535413,11.0,514.9415893554688
3.75,-34.55403789093258,-58.42497324958028,4407.866118828766,3.400240898132324,-3524.93310546875,-6.748195648193359,15.151862144470215,221.6750030517578,0.7,-0.23428565309988128,-0.2258175328143448,11.0,516.7900390625
3.8,-34.55403925323131,-58.424974476879896,4406.813932044432,3.7663938999176025,-3552.822998046875,-6.588291168212891,15.012371063232422,224.02877807617188,0.7,-0.23464834391806932,-0.22701861129016904,11.0,518.6187133789062
3.85,-34.554040559889465,-58.42497573085994,4405.788043338805,4.114818572998047,-3580.457275390625,-6.414663791656494,14.85277271270752,226.20721435546875,0.7,-0.23486743035312851,-0.22422579355407468,11.0,520.2903442382812
3.901,-34.55404186183057,-58.42497701152041,4404.748122014105,4.436495304107666,-3607.1201171875,-6.2228684425354,14.668078422546387,228.3048553466797,0.7,-0.23485385000119463,-0.22467808230223416,11.0,522.0004272460938
3.952,-34.55404316564719,-58.424978372222164,4403.687401758507,4.749734401702881,-3634.384521484375,-6.014090061187744,14.459542274475098,230.3389129638672,0.7,-0.23462880532592117,-0.22502833566728714,11.0,523.6270751953125
4.001,-34.554044445336125,-58.42497973292391,4402.625870130025,5.047391891479492,-3661.749267578125,-5.795317649841309,14.242191314697266,232.2746124267578,0.7,-0.2342888628299588,-0.22523559768096707,11.0,525.2695922851562
4.051,-34.554045673846815,-58.424981040264804,4401.586093315855,5.322933673858643,-3688.639892578125,-5.574458599090576,14.032086372375488,234.0785675048828,0.7,-0.23400149085449728,-0.22359409437854616,11.0,526.7764282226562
4.101,-34.55404691908015,-58.42498248100783,4400.509771074168,5.5779829025268555,-3715.187255859375,-5.341944217681885,13.83080005645752,235.85308837890625,0.7,-0.23378910695032679,-0.22379660511347987,11.0,528.1847534179688
4.152,-34.55404814887437,-58.42498394843129,4399.422887230292,5.819088935852051,-3742.104736328125,-5.106626033782959,13.657946586608887,237.5543212890625,0.7,-0.2337773376228262,-0.2239374201118946,11.0,529.4965209960938
4.2,-34.554049358201546,-58.42498546921559,4398.328697120771,6.0436625480651855,-3769.18310546875,-4.873405933380127,13.527498245239258,239.18258666992188,0.7,-0.23405957287854176,-0.2245728558249005,11.0,530.9778442382812
4.252,-34.554050507076845,-58.424986909958626,4397.263800473884,6.245523452758789,-3795.640869140625,-4.6540937423706055,13.444920539855957,240.69337463378906,0.7,-0.2347336930328759,-0.2229910617312854,11.0,532.4783935546875
4.302,-34.554051659074325,-58.42498843074293,4396.169082827866,6.4244585037231445,-3821.271484375,-4.44080924987793,13.39882755279541,242.17819213867188,0.7,-0.23570858892313584,-0.22335586807888433,11.0,534.1287231445312
4.35,-34.554052780830034,-58.42498997820766,4395.0752193322405,6.569007396697998,-3843.923583984375,-4.2449951171875,13.377908706665039,243.60342407226562,0.7,-0.23664012365546422,-0.22958448510785287,11.0,535.5722045898438
4.402,-34.55405389405941,-58.42499149899197,4393.960330146365,6.721696853637695,-3870.337646484375,-4.0665974617004395,13.366555213928223,245.002197265625,0.7,-0.2379007613781739,-0.22367065034966502,11.0,537.2843017578125
4.45,-34.55405495039008,-58.42499301977628,4392.873332287185,6.873063564300537,-3899.94482421875,-3.9147119522094727,13.350685119628906,246.31668090820312,0.7,-0.2392854266062447,-0.2202724325298183,11.0,539.2960205078125
4.5,-34.554056019228454,-58.42499464728229,4391.74232822191,6.9888916015625,-3925.8154296875,-3.782109022140503,13.316728591918945,247.64346313476562,0.7,-0.24035785310808844,-0.22440538649772265,11.0,541.0792846679688
4.552,-34.55405718338269,-58.42499640819044,4390.471835033037,7.1031670570373535,-3955.2783203125,-3.66399884223938,13.250764846801758,249.09133911132812,0.7,-0.24130560786221614,-0.22527906641299958,11.0,543.0140380859375
4.601,-34.554058188417656,-58.4249979823356,4389.339629715309,7.189570903778076,-3981.327880859375,-3.5828754901885986,13.167215347290039,250.34136962890625,0.7,-0.24194971989212335,-0.22535406547912631,11.0,544.5659790039062
4.651,-34.55405908341361,-58.42499947643948,4388.301247362979,7.258163928985596,-4005.408935546875,-3.5249881744384766,13.075315475463867,251.45272827148438,0.7,-0.2423751565257699,-0.22620242655320064,11.0,545.8740844726562
4.702,-34.55406012679288,-58.42500126402805,4387.051844964735,7.3267436027526855,-4033.956787109375,-3.4719200134277344,12.95780086517334,252.74624633789062,0.7,-0.24284081591000073,-0.22604315355818735,11.0,547.4042358398438
4.751,-34.554061024409656,-58.425002838173214,4385.94027298037,7.376184940338135,-4058.837646484375,-3.4365322589874268,12.858073234558105,253.8568115234375,0.7,-0.24329476944018985,-0.2259007656121995,11.0,548.7191772460938
4.802,-34.554061929459934,-58.4250044389988,4384.781865549274,7.418573379516602,-4084.8447265625,-3.409078359603882,12.769341468811035,254.97610473632812,0.7,-0.24386197204666532,-0.22636455444868783,11.0,550.0573120117188
4.851,-34.55406281637558,-58.42500609318524,4383.606699816883,7.452898979187012,-4111.296875,-3.389531373977661,12.703688621520996,256.0760498046875,0.7,-0.2445694745603487,-0.2275313785912845,11.0,551.37939453125
4.901,-34.55406365187721,-58.42500772069125,4382.460112432949,7.479092121124268,-4137.54638671875,-3.3768370151519775,12.668718338012695,257.11773681640625,0.7,-0.24555908746478972,-0.22648696791549344,11.0,552.5989990234375
4.951,-34.554064478744884,-58.42500937487769,4381.283920347691,7.497991561889648,-4163.2158203125,-3.3688900470733643,12.664653778076172,258.1575012207031,0.7,-0.24679806929658016,-0.22723885191378335,11.0,553.835205078125
5.001,-34.554065284140385,-58.42501102906413,4380.094808862545,7.510916233062744,-4188.71630859375,-3.365072727203369,12.690594673156738,259.18487548828125,0.7,-0.2482331652942496,-0.22858987072128895,11.0,555.0173950195312
5.052,-34.55406616050217,-58.425012950054835,4378.747243507765,7.519504547119141,-4218.5673828125,-3.3644979000091553,12.748403549194336,260.3268737792969,0.7,-0.2501254870460669,-0.22862541616246904,11.0,556.386962890625
5.101,-34.55406678967454,-58.42501431075658,4377.74157465715,7.521851062774658,-4241.19970703125,-3.3653573989868164,12.80382251739502,261.1671447753906,0.7,-0.25164001426587923,-0.229021235596035,11.0,557.2570190429688
5.152,-34.55406761070372,-58.42501620506686,4376.37482712511,7.520168781280518,-4271.126953125,-3.3657662868499756,12.879630088806152,262.2945556640625,0.7,-0.2537021332056191,-0.22978625316154247,11.0,558.2763061523438
5.201,-34.55406830677952,-58.4250178592533,4375.16239190381,7.514886856079102,-4296.7958984375,-3.363276720046997,12.925714492797852,263.28350830078125,0.7,-0.25535880159858226,-0.2304762853232112,11.0,559.0093994140625
5.252,-34.55406898979554,-58.42501956680059,4373.918637766503,7.506117820739746,-4323.30810546875,-3.354740858078003,12.9337158203125,264.2867431640625,0.7,-0.2567099006016226,-0.23159200141501354,11.0,559.5755615234375
5.302,-34.55406963258708,-58.425021220987034,4372.694150897674,7.494405269622803,-4349.64501953125,-3.338486433029175,12.896258354187012,265.265625,0.7,-0.2576685752269079,-0.23227706355126648,11.0,560.295654296875
5.35,-34.554070235309155,-58.42502282181262,4371.492394208908,7.482458591461182,-4371.71142578125,-3.3132681846618652,12.82332992553711,266.2176513671875,0.7,-0.2582069686050304,-0.23473900212390694,11.0,560.84375
5.401,-34.55407082442664,-58.42502447599906,4370.2603427106515,7.463442325592041,-4401.41455078125,-3.276195526123047,12.724625587463379,267.1811218261719,0.7,-0.2588350175208336,-0.23104040495999853,11.0,561.4697875976562
5.45,-34.554071385956156,-58.42502610350507,4369.0255734669045,7.444515228271484,-4426.88720703125,-3.2269251346588135,12.616538047790527,268.131103515625,0.7,-0.2591978533662961,-0.23403258471823218,11.0,561.93359375
5.501,-34.55407191778151,-58.42502775769151,4367.79351720307,7.425826072692871,-4449.31396484375,-3.1661198139190674,12.514775276184082,269.06365966796875,0.7,-0.25942493794614807,-0.23766889738545688,11.0,562.19580078125
5.551,-34.55407241529365,-58.42502933183667,4366.576831553131,7.398581504821777,-4478.44140625,-3.094515562057495,12.436345100402832,269.96514892578125,0.7,-0.26018897432030413,-0.2320863997587667,11.0,562.4299926757812
5.601,-34.55407296103112,-58.425031199466524,4365.158403489739,7.3678388595581055,-4507.552734375,-2.9981000423431396,12.39072036743164,270.99176025390625,0.7,-0.2612149141187016,-0.2350838160560603,11.0,562.6900634765625
5.651,-34.55407341718942,-58.425032853652965,4363.893586039543,7.33858060836792,-4532.455078125,-2.904371500015259,12.40129280090332,271.89453125,0.7,-0.26252659406810674,-0.23576271232511067,11.0,562.9183349609375
5.701,-34.55407384383008,-58.42503445447855,4362.6311181290075,7.305808067321777,-4557.7626953125,-2.8053171634674072,12.463106155395508,272.784912109375,0.7,-0.26424833299657,-0.23631234696721995,11.0,562.8689575195312
5.751,-34.55407423994639,-58.42503602862371,4361.374165743589,7.270101070404053,-4582.87060546875,-2.702138900756836,12.571084976196289,273.6619873046875,0.7,-0.26631978724180966,-0.23718993031147348,11.0,562.676025390625
5.8,-34.55407460097433,-58.42503760276887,4360.141117128544,7.232385158538818,-4607.11962890625,-2.597611427307129,12.710827827453613,274.5176696777344,0.7,-0.26867004735200706,-0.23726609743022048,11.0,562.3604125976562
5.85,-34.55407494046535,-58.42503917691403,4358.885729251429,7.192260265350342,-4630.8056640625,-2.489138126373291,12.868388175964355,275.3909912109375,0.7,-0.2711946176472575,-0.2380936242892075,11.0,561.9605102539062
5.901,-34.5540752956062,-58.4250409645026,4357.445719702169,7.140946388244629,-4658.50341796875,-2.3635969161987305,13.032408714294434,276.4030456542969,0.7,-0.2739584854191692,-0.23929354535863281,11.0,561.5550537109375
5.95,-34.55407558293941,-58.42504253864776,4356.15851195436,7.092173099517822,-4682.623046875,-2.2512638568878174,13.134230613708496,277.32183837890625,0.7,-0.2760650092085819,-0.2405387263601622,11.0,561.3258056640625
6.001,-34.554075844234454,-58.425044112792925,4354.861432648264,7.03971004486084,-4706.61376953125,-2.1378986835479736,13.173192024230957,278.26300048828125,0.7,-0.27765361751515993,-0.24202925777333684,11.0,561.0775756835938
6.051,-34.55407607297739,-58.42504563357723,4353.590665764175,6.983983039855957,-4730.25634765625,-2.025430679321289,13.138330459594727,279.1973571777344,0.7,-0.2786886841722741,-0.24204326310763022,11.0,560.7315673828125
6.102,-34.5540762799807,-58.425047207722386,4352.284832115285,6.9264936447143555,-4752.9658203125,-1.906433343887329,13.02415657043457,280.16455078125,0.7,-0.27906698723028106,-0.24363607317942,11.0,560.2784423828125
6.152,-34.55407645891007,-58.425048728506695,4350.979910828173,6.86550760269165,-4775.4599609375,-1.7822353839874268,12.835867881774902,281.1317138671875,0.7,-0.2788303478610514,-0.24446065116162194,11.0,559.7838134765625
6.201,-34.55407661346458,-58.425050249291004,4349.646874969825,6.798526287078857,-4798.5419921875,-1.648472785949707,12.583428382873535,282.11322021484375,0.7,-0.2780312834887182,-0.24593007392646793,11.0,559.4067993164062
6.252,-34.55407673565317,-58.42505169003403,4348.372116566636,6.740671157836914,-4817.29296875,-1.5140948295593262,12.310301780700684,283.0415344238281,0.7,-0.27690470795640365,-0.24802695186906643,11.0,559.3245849609375
6.303,-34.5540768478931,-58.42505339758132,4346.887419655919,6.647864818572998,-4845.41357421875,-1.3504563570022583,11.991582870483398,284.1046142578125,0.7,-0.27584201847641954,-0.24442900653631863,11.0,559.3822631835938
6.352,-34.554076920627054,-58.42505483832435,4345.582521078177,6.573943138122559,-4866.32861328125,-1.2008765935897827,11.747105598449707,285.0160217285156,0.7,-0.27504535534267494,-0.24648554572115403,11.0,559.3795166015625
6.401,-34.55407697058184,-58.425056279067384,4344.242042229511,6.493570804595947,-4887.77392578125,-1.0436034202575684,11.559606552124023,285.928466796875,0.7,-0.2746937960117728,-0.24711132756750434,11.0,559.353515625
6.451,-34.554076996356244,-58.425057693129986,4342.911909870803,6.40972900390625,-4908.88525390625,-0.8867612481117249,11.45536994934082,286.81121826171875,0.7,-0.2749727282300418,-0.24762290599415213,11.0,559.5123291015625
6.502,-34.55407699984247,-58.42505905383173,4341.6184331178665,6.322298526763916,-4929.708984375,-0.7368209958076477,11.437958717346191,287.6529541015625,0.7,-0.27596691263157436,-0.2471104485115913,11.0,559.7274780273438
6.552,-34.554076981922066,-58.42506044121391,4340.274835249409,6.234272480010986,-4949.619140625,-0.58714359998703,11.501605987548828,288.51678466796875,0.7,-0.2776161023749394,-0.24824377472068426,11.0,560.0090942382812
6.601,-34.554076941938334,-58.425061881956935,4338.903653129004,6.138977527618408,-4970.13525390625,-0.44437313079833984,11.634596824645996,289.3973693847656,0.7,-0.2798388535307948,-0.2491999999836796,11.0,560.4217529296875
6.652,-34.55407687440138,-58.42506337606081,4337.397751076147,6.0283732414245605,-4992.8046875,-0.3052856922149658,11.8264741897583,290.3790588378906,0.7,-0.2826861569501838,-0.24999753035356514,11.0,561.0736083984375
6.701,-34.554076807519,-58.4250644699583,4336.259526651353,5.9572343826293945,-5006.8369140625,-0.21719369292259216,11.978617668151855,291.1405029296875,0.7,-0.2847504469931404,-0.25444602842589,11.0,561.5010375976562
6.751,-34.55407669808401,-58.42506596406218,4334.746637135744,5.824391841888428,-5032.06787109375,-0.12404955178499222,12.158106803894043,292.1823425292969,0.7,-0.28768296709923824,-0.25067322629954747,11.0,562.2070922851562
6.801,-34.55407657973942,-58.42506721804222,4333.382294769399,5.720271110534668,-5051.12353515625,-0.0632718950510025,12.270559310913086,293.1515197753906,0.7,-0.2898078393145275,-0.2539333353839492,11.0,562.7750854492188
6.85,-34.55407644158491,-58.42506849870269,4332.001053613611,5.609817981719971,-5070.7900390625,-0.02425101213157177,12.3143310546875,294.1654052734375,0.7,-0.29139270227909864,-0.2555566016368467,11.0,563.4612426757812
6.901,-34.55407628425011,-58.425069726002306,4330.607887817547,5.498666763305664,-5090.173828125,-0.006186016835272312,12.272858619689941,295.21905517578125,0.7,-0.29226668452176485,-0.25762433047061567,11.0,564.2125244140625
6.951,-34.554076116169554,-58.425070873260644,4329.2681683646515,5.388338088989258,-5109.13330078125,-0.005193504970520735,12.145655632019043,296.25225830078125,0.7,-0.29245256149126697,-0.2578558073738066,11.0,564.7206420898438
7.0,-34.554075926239086,-58.425072100560264,4327.890823658556,5.280488967895508,-5127.515625,-0.01588360406458378,11.929036140441895,297.32080078125,0.7,-0.2919085415753365,-0.2592989359622877,11.0,565.0003051757812
7.05,-34.5540757163659,-58.4250732478186,4326.494516141713,5.169915676116943,-5146.31005859375,-0.03426193818449974,11.635021209716797,298.3980712890625,0.7,-0.29070976454990005,-0.2604535712655006,11.0,565.3160400390625
7.102,-34.55407548923041,-58.42507439507694,4325.094617641531,5.059432029724121,-5165.13525390625,-0.05654159188270569,11.288625717163086,299.4607849121094,0.7,-0.28904876018600917,-0.2611808418787726,11.0,565.5272827148438
7.152,-34.55407525172389,-58.425075462294,4323.728565794416,4.953124523162842,-5183.3369140625,-0.07804005593061447,10.930072784423828,300.4667053222656,0.7,-0.28725088270313925,-0.2609139639503563,11.0,565.6149291992188
7.201,-34.55407499208682,-58.42507655619148,4322.322489206679,4.849193096160889,-5201.287109375,-0.09863778948783875,10.57475471496582,301.46337890625,0.7,-0.28549627525735977,-0.26054612393040694,11.0,566.047607421875
7.251,-34.55407471386992,-58.42507762340854,4320.89367781207,4.744041919708252,-5219.68310546875,-0.11844494193792343,10.267783164978027,302.4356384277344,0.7,-0.2840495117485353,-0.26173614599083017,11.0,566.458251953125
7.302,-34.554074428252655,-58.42507863726474,4319.498009685427,4.643436908721924,-5237.560546875,-0.13600797951221466,10.05561637878418,303.3408203125,0.7,-0.2833227676740149,-0.26142858772866034,11.0,566.5847778320312
7.351,-34.55407413394907,-58.425079597760096,4318.123319614679,4.545175075531006,-5255.33935546875,-0.15158383548259735,9.953409194946289,304.1878662109375,0.7,-0.2834962766631266,-0.26036242371839824,11.0,566.4378051757812
7.402,-34.55407377965419,-58.42508066497715,4316.540567469783,4.437178134918213,-5275.2255859375,-0.16816546022891998,9.975476264953613,305.1138000488281,0.7,-0.2847897812663263,-0.26062988477100846,11.0,566.0018920898438
7.452,-34.55407344754083,-58.425081598792076,4315.11707414221,4.346127986907959,-5292.2919921875,-0.1837366670370102,10.110159873962402,305.91510009765625,0.7,-0.28687721669121047,-0.2607747333285626,11.0,565.612548828125
7.501,-34.554073105882445,-58.425082532607,4313.702412531711,4.257175445556641,-5309.2119140625,-0.20246942341327667,10.32354736328125,306.69964599609375,0.7,-0.2896028894063357,-0.26126294283357937,11.0,565.411865234375
7.55,-34.55407274786665,-58.425083413061074,4312.265668941662,4.168578624725342,-5326.3359375,-0.22732165455818176,10.584561347961426,307.5031433105469,0.7,-0.2927224265658165,-0.26249367823819986,11.0,565.3915405273438
7.602,-34.55407239447509,-58.425084213473866,4310.885989524424,4.08420467376709,-5342.94189453125,-0.2586285471916199,10.83497142791748,308.296142578125,0.7,-0.2958031671019937,-0.26258567018798507,11.0,565.5945434570312
7.652,-34.55407201906725,-58.425085067247515,4309.455877786502,4.004421710968018,-5358.94580078125,-0.3000703454017639,11.050671577453613,309.1526794433594,0.7,-0.2986357339614529,-0.2644236373053646,11.0,565.9784545898438
7.702,-34.55407163663881,-58.42508586766031,4308.032069355249,3.927185535430908,-5374.8076171875,-0.349417120218277,11.183121681213379,310.04449462890625,0.7,-0.30078463794185717,-0.2663468193115354,11.0,566.2900390625
7.75,-34.55407124959391,-58.425086588031824,4306.621136981063,3.8622095584869385,-5388.49755859375,-0.40342244505882263,11.20846939086914,310.9634094238281,0.7,-0.30190633029043046,-0.27118782160359256,11.0,566.5846557617188
7.801,-34.554070852913526,-58.425087308403334,4305.2017622040585,3.7904086112976074,-5404.07861328125,-0.45958057045936584,11.119512557983398,311.9168701171875,0.7,-0.3023161029317975,-0.26844157531442603,11.0,567.1417846679688
7.851,-34.55407044708546,-58.42508802877485,4303.774658241309,3.712684392929077,-5421.6044921875,-0.5141122341156006,10.9227933883667,312.8963623046875,0.7,-0.3019696237170952,-0.26775204310595574,11.0,567.8709106445312
7.902,-34.5540699735115,-58.42508880250722,4302.138276866637,3.6383697986602783,-5439.16064453125,-0.569789707660675,10.595906257629395,314.03411865234375,0.7,-0.30054668479949365,-0.2714520609504036,11.0,568.7368774414062
7.951,-34.554069550511024,-58.42508946951788,4300.699632614851,3.577338218688965,-5454.29736328125,-0.609878420829773,10.25714111328125,315.0376281738281,0.7,-0.29883894070855627,-0.27256768732462744,11.0,569.8478393554688
8.001,-34.55406911215699,-58.425090109848114,4299.228036452085,3.517666816711426,-5469.87353515625,-0.6404346823692322,9.900646209716797,316.0564270019531,0.7,-0.2969689869747762,-0.273388381219964,11.0,571.1766357421875
8.052,-34.55406868295753,-58.42509064345664,4297.803317911923,3.4625301361083984,-5485.07958984375,-0.6595239639282227,9.57989501953125,317.0278625488281,0.7,-0.2953559777459026,-0.2731525976361195,11.0,572.6967163085938
8.101,-34.55406823858207,-58.42509128378688,4296.34220761247,3.4110069274902344,-5500.05859375,-0.6693145632743835,9.303686141967773,318.0049133300781,0.7,-0.29407103172371163,-0.2740642846354408,11.0,574.3949584960938
8.152,-34.554067786042765,-58.42509179071498,4294.866109075956,3.3610005378723145,-5515.43603515625,-0.6708606481552124,9.097668647766113,318.9713134765625,0.7,-0.2933315996661771,-0.2745275002331426,11.0,576.0828857421875
8.2,-34.55406731642257,-58.425092377684365,4293.3447842290625,3.3121376037597656,-5531.2900390625,-0.6649980545043945,8.972492218017578,319.943359375,0.7,-0.29321757847546803,-0.2756116353272801,11.0,577.5635986328125
8.252,-34.55406686978328,-58.42509283125161,4291.906237497926,3.266390323638916,-5546.85498046875,-0.6538709402084351,8.937958717346191,320.8402404785156,0.7,-0.2938286048708918,-0.2747411031583034,11.0,578.7205810546875
8.301,-34.554066414324446,-58.42509325813843,4290.4465977670625,3.224154233932495,-5561.8408203125,-0.6380578279495239,8.98333740234375,321.72882080078125,0.7,-0.29507006820199694,-0.27555744385338343,11.0,579.4252319335938
8.351,-34.554065953518645,-58.42509373838611,4288.9775950862095,3.1820015907287598,-5577.35986328125,-0.6176695823669434,9.10018253326416,322.6017761230469,0.7,-0.2968924082726141,-0.2759819177958942,11.0,579.5263061523438
8.401,-34.55406543323223,-58.42509419195336,4287.327962952666,3.135376214981079,-5595.076171875,-0.5897555947303772,9.290644645690918,323.55999755859375,0.7,-0.29944973398390573,-0.27607367663354393,11.0,579.2282104492188
8.451,-34.55406495794238,-58.425094618840184,4285.827964414842,3.0939266681671143,-5611.12109375,-0.5613166689872742,9.489727973937988,324.42169189453125,0.7,-0.30196650842194817,-0.2772348436878072,11.0,578.854736328125
8.501,-34.55406449986131,-58.4250949390053,4284.38822928071,3.054248809814453,-5626.6044921875,-0.5316388010978699,9.675437927246094,325.2474060058594,0.7,-0.3043881434713994,-0.27726949124550565,11.0,578.1803588867188
8.552,-34.5540640289413,-58.425095232489994,4282.913556066342,3.0156986713409424,-5641.65966796875,-0.49845683574676514,9.830121040344238,326.0957946777344,0.7,-0.3065886810628454,-0.2781959214055862,11.0,577.39599609375
8.601,-34.55406356007859,-58.42509557933553,4281.449716517702,2.976519823074341,-5656.86669921875,-0.4624382555484772,9.923354148864746,326.9446716308594,0.7,-0.3082920364799948,-0.27915112065558273,11.0,576.5114135742188
8.651,-34.5540630271738,-58.42509587282023,4279.790134047158,2.931705951690674,-5673.93115234375,-0.41643279790878296,9.935744285583496,327.9149475097656,0.7,-0.309487503367016,-0.279918308337333,11.0,575.5131225585938
8.702,-34.55406254318432,-58.42509611294406,4278.285027006641,2.8903262615203857,-5689.24951171875,-0.3693757653236389,9.85517406463623,328.802734375,0.7,-0.3098102072234356,-0.2811329660194049,11.0,574.8665161132812
8.752,-34.554062054027845,-58.425096326387475,4276.764208422042,2.8478522300720215,-5704.4013671875,-0.3159765899181366,9.690940856933594,329.70477294921875,0.7,-0.30947922391828603,-0.2815515066180528,11.0,574.3861083984375
8.8,-34.55406157668302,-58.42509653983089,4275.278609147295,2.8068771362304688,-5718.4658203125,-0.25765460729599,9.466166496276855,330.58575439453125,0.7,-0.30862084140222057,-0.2822159065197802,11.0,574.19189453125
8.851,-34.55406108895285,-58.425096699913446,4273.757248829119,2.7635257244110107,-5732.76904296875,-0.19175535440444946,9.196085929870605,331.482666015625,0.7,-0.3073702047502619,-0.2833135428850435,11.0,574.2100830078125
8.901,-34.55406060125053,-58.42509683331558,4272.230789958499,2.7181572914123535,-5747.0771484375,-0.11949829012155533,8.912672996520996,332.3695983886719,0.7,-0.30598479779875976,-0.2838228482867809,11.0,574.3348999023438
8.951,-34.55406012846918,-58.425096940037285,4270.744633182883,2.6726133823394775,-5760.76513671875,-0.043434880673885345,8.649711608886719,333.2121276855469,0.7,-0.30473876020251767,-0.28356412891530564,11.0,574.4161987304688
9.002,-34.55405964071112,-58.42509702007856,4269.203348452225,2.624983072280884,-5774.32421875,0.040922652930021286,8.41263198852539,334.0555419921875,0.7,-0.3037008174117888,-0.28377020655398355,11.0,574.3417358398438
9.051,-34.554059152308035,-58.42509710011984,4267.650355827063,2.574794054031372,-5787.853515625,0.13049417734146118,8.226566314697266,334.8683776855469,0.7,-0.30303857656851707,-0.28408003868348525,11.0,574.11767578125
9.101,-34.55405866553733,-58.42509710011984,4266.091356369667,2.5224363803863525,-5801.21728515625,0.22351102530956268,8.10150146484375,335.6445007324219,0.7,-0.3028414836699682,-0.28416803937541507,11.0,573.7265625
9.151,-34.55405820758265,-58.42509712680027,4264.612961221486,2.4696264266967773,-5813.9541015625,0.3131501078605652,8.039671897888184,336.3437805175781,0.7,-0.3031402871776403,-0.2832460910339074,11.0,573.2398071289062
9.201,-34.554057752968426,-58.42509712680027,4263.132327376865,2.4174253940582275,-5825.81689453125,0.40255799889564514,8.025888442993164,337.0131530761719,0.7,-0.3038031646085255,-0.28350786721477456,11.0,572.7303466796875
9.251,-34.55405728935157,-58.42509707343942,4261.607072849758,2.359821319580078,-5838.11083984375,0.49255767464637756,8.047040939331055,337.6766662597656,0.7,-0.3047733773777717,-0.28347310949452315,11.0,572.1333618164062
9.302,-34.554056771325335,-58.425096993398135,4259.881893069483,2.2913527488708496,-5851.7099609375,0.5898260474205017,8.089741706848145,338.40350341796875,0.7,-0.3060132732908287,-0.28381413221134644,11.0,571.53271484375
9.352,-34.554056333266075,-58.42509691335686,4258.403245847672,2.2296433448791504,-5863.173828125,0.6673868894577026,8.120060920715332,339.0159606933594,0.7,-0.3070294511900001,-0.28406963229980847,11.0,571.2861328125
9.401,-34.55405589397962,-58.42509677995473,4256.899600747041,2.1644890308380127,-5874.6142578125,0.7389660477638245,8.124768257141113,339.6375732421875,0.7,-0.3078690066337784,-0.2843063638482963,11.0,571.1588134765625
9.451,-34.55405546221536,-58.42509667323302,4255.399164723232,2.0996854305267334,-5885.45654296875,0.8032706379890442,8.086030006408691,340.256591796875,0.7,-0.3083655349553193,-0.28461891308520737,11.0,570.8973999023438
9.5,-34.55405501881792,-58.42509645978961,4253.8324383459985,2.039137125015259,-5895.08349609375,0.8634487986564636,7.986945152282715,340.8992614746094,0.7,-0.3082472514076339,-0.28794183905303716,11.0,570.728271484375
9.552,-34.55405458754334,-58.425096273026625,4252.280474009924,1.9583877325057983,-5907.4072265625,0.9165323376655579,7.825943470001221,341.52960205078125,0.7,-0.3078406755275205,-0.2844168219299745,11.0,570.7651977539062
9.6,-34.554054183117614,-58.42509605958321,4250.796890814789,1.8884596824645996,-5917.77880859375,0.9614102244377136,7.617108345031738,342.12384033203125,0.7,-0.3069241872763244,-0.2857022855997307,11.0,571.1868286132812
9.651,-34.55405377677854,-58.42509581945937,4249.274624902755,1.8214828968048096,-5927.55419921875,1.0002758502960205,7.357132911682129,342.7287902832031,0.7,-0.30555332302261834,-0.2867389147008401,11.0,572.0101318359375
9.7,-34.55405334078999,-58.42509555265511,4247.601945039816,1.7416925430297852,-5938.609375,1.0356178283691406,7.038134574890137,343.37890625,0.7,-0.30376308489430737,-0.28671652525415736,11.0,572.8870239257812
9.752,-34.55405294811489,-58.425095285850844,4246.056557396427,1.665518879890442,-5948.68115234375,1.0627353191375732,6.739082336425781,343.95458984375,0.7,-0.3020444053954792,-0.2866803380852339,11.0,573.6412963867188
9.8,-34.554052563700175,-58.425094992366155,4244.504104360007,1.588226079940796,-5958.64404296875,1.0852652788162231,6.466073989868164,344.50146484375,0.7,-0.3004871688880945,-0.2868837611506766,11.0,574.389404296875
9.851,-34.55405220199692,-58.425094672201034,4243.003857144155,1.5113922357559204,-5968.43994140625,1.102526068687439,6.254545211791992,344.99688720703125,0.7,-0.29941096508317855,-0.28605760287235193,11.0,575.1546630859375
9.9,-34.55405183498892,-58.425094325355495,4241.437976891175,1.4368892908096313,-5977.9462890625,1.1152957677841187,6.108419895172119,345.4800109863281,0.7,-0.2988456320330944,-0.2861612694146187,11.0,575.948974609375
9.952,-34.55405148279508,-58.42509397850995,4239.88927192986,1.3613961935043335,-5987.67822265625,1.1221795082092285,6.048888683319092,345.92791748046875,0.7,-0.2989678134130229,-0.2857970779882422,11.0,576.6380004882812
10.0,-34.55405114185253,-58.42509360498398,4238.341897629201,1.286953330039978,-5997.4501953125,1.1232179403305054,6.074368953704834,346.3507385253906,0.7,-0.2997543795087886,-0.2858956984464692,11.0,577.1468505859375
10.051,-34.55405081944092,-58.42509325813843,4236.829795176163,1.2149770259857178,-6007.1279296875,1.1186258792877197,6.173916816711426,346.7470703125,0.7,-0.30116515974491176,-0.2853629395461466,11.0,577.485107421875
10.102,-34.55405045441011,-58.425092724529904,4235.053230223246,1.1344963312149048,-6018.2841796875,1.1068121194839478,6.365541458129883,347.2012634277344,0.7,-0.3034169067126212,-0.2858060066375966,11.0,577.5436401367188
10.152,-34.55405014837371,-58.42509235100393,4233.503969828598,1.0691730976104736,-6027.6416015625,1.0914802551269531,6.56683349609375,347.597412109375,0.7,-0.3056708202796567,-0.2861622336907972,11.0,577.4676513671875
10.201,-34.554049856999825,-58.42509187075626,4231.970958656631,1.0058339834213257,-6037.00390625,1.0719565153121948,6.761995792388916,347.99981689453125,0.7,-0.30788554517984223,-0.2867285082835873,11.0,577.3587036132812
10.252,-34.554049570842835,-58.425091443869434,4230.402501872741,0.9428123831748962,-6046.63671875,1.0481724739074707,6.924246788024902,348.4287109375,0.7,-0.30985695830276594,-0.2875631034295051,11.0,577.1530151367188
10.3,-34.55404930174093,-58.42509093694133,4228.8627450522035,0.8839622139930725,-6055.95068359375,1.0217564105987549,7.021557807922363,348.8707580566406,0.7,-0.3113277608272114,-0.28806324314015397,11.0,577.1257934570312
10.35,-34.55404904275439,-58.425090483374085,4227.31314805802,0.8291817903518677,-6064.93603515625,0.9925069808959961,7.0417962074279785,349.3400573730469,0.7,-0.31218530876190675,-0.2889731475738908,11.0,577.3212890625
10.4,-34.554048790504794,-58.42508997644598,4225.730639325455,0.7747920751571655,-6074.212890625,0.9607450366020203,6.974966049194336,349.8436584472656,0.7,-0.3123453950395029,-0.2899871544590121,11.0,577.7484130859375
10.451,-34.5540485241176,-58.42508933611575,4223.968346372247,0.7175897359848022,-6084.42822265625,0.9245930314064026,6.801962375640869,350.4267883300781,0.7,-0.3117139225248815,-0.29088261497045453,11.0,578.3800048828125
10.501,-34.55404829596843,-58.42508880250722,4222.371780774556,0.6686227917671204,-6093.63037109375,0.8928744792938232,6.576231479644775,350.9649963378906,0.7,-0.3105513491676583,-0.2917761579772868,11.0,579.1769409179688
10.551,-34.554048091568006,-58.425088295579116,4220.861508837901,0.6240159273147583,-6102.4619140625,0.8648251891136169,6.3287858963012695,351.4741516113281,0.7,-0.3091883095078106,-0.2916326237192295,11.0,580.0755004882812
10.601,-34.554047892779984,-58.42508770860973,4219.306977041066,0.5831020474433899,-6111.0185546875,0.8390251994132996,6.06640100479126,351.9879150390625,0.7,-0.3076808440009451,-0.29212664835934193,11.0,580.8672485351562
10.651,-34.55404770127044,-58.42508714832078,4217.713501713239,0.5423742532730103,-6120.00341796875,0.8168569803237915,5.8181891441345215,352.4922180175781,0.7,-0.30627356788042004,-0.2921390621729555,11.0,581.5813598632812
10.702,-34.554047501798365,-58.42508645462969,4215.932499462739,0.4956062138080597,-6130.04833984375,0.7964537739753723,5.602138042449951,353.0250549316406,0.7,-0.30516590509303204,-0.2920376047781951,11.0,582.6014404296875
10.751,-34.554047341943885,-58.42508584097988,4214.395460335538,0.4533991813659668,-6138.81640625,0.7809091210365295,5.487520217895508,353.4626770019531,0.7,-0.3047614672523413,-0.2921416659035889,11.0,583.7011108398438
10.801,-34.55404719461251,-58.4250852540105,4212.871134963818,0.40986207127571106,-6147.74462890625,0.7658632397651672,5.447788715362549,353.882080078125,0.7,-0.30497647870012906,-0.2916812391096299,11.0,584.8067626953125
10.852,-34.554047053916186,-58.42508461368027,4211.2938686311245,0.36743977665901184,-6156.4521484375,0.7496166825294495,5.483493328094482,354.3059997558594,0.7,-0.30579385543361753,-0.29218804370444046,11.0,585.86474609375
10.903,-34.55404691046955,-58.42508386662833,4209.52686074283,0.3181457817554474,-6166.69921875,0.7292540669441223,5.605074882507324,354.77813720703125,0.7,-0.3073892059050406,-0.2923221704389836,11.0,586.9656372070312
10.95,-34.55404679467185,-58.42508322629809,4207.943455786444,0.2750265896320343,-6175.86767578125,0.7077597975730896,5.770157814025879,355.20892333984375,0.7,-0.30927131956077536,-0.29302177718377126,11.0,587.952392578125
11.002,-34.554046689633886,-58.425082532607,4206.339789407328,0.23202987015247345,-6185.279296875,0.6811498403549194,5.969457626342773,355.6655578613281,0.7,-0.3114462299050868,-0.2939235807382765,11.0,589.0803833007812
11.051,-34.55404659846147,-58.42508186559634,4204.765664013103,0.18998965620994568,-6194.81689453125,0.6491835117340088,6.172732830047607,356.14324951171875,0.7,-0.31368904186624236,-0.29447878106182135,11.0,590.0899658203125
11.102,-34.55404651774787,-58.425081118544405,4203.162555896677,0.15121421217918396,-6203.97314453125,0.6104111075401306,6.363208293914795,356.6648254394531,0.7,-0.31583353454916446,-0.2960260715106331,11.0,591.1276245117188
11.153,-34.55404644176246,-58.42508034481204,4201.3679204229265,0.10758131742477417,-6214.7744140625,0.5589049458503723,6.528707027435303,357.2980041503906,0.7,-0.3178727024884802,-0.2973987504881222,11.0,592.4221801757812
11.202,-34.55404639207035,-58.42507975784265,4199.939772986807,0.07444018870592117,-6223.39697265625,0.5121706128120422,6.60669469833374,357.8402404785156,0.7,-0.3190611815937662,-0.298962584141652,11.0,593.4124755859375
11.252,-34.554046342225185,-58.425078904069004,4198.109234876931,0.03389022871851921,-6234.60205078125,0.4467964768409729,6.621515274047852,358.5799255371094,0.7,-0.3199191774315908,-0.3001115643965618,11.0,594.5618896484375
11.301,-34.55404631481017,-58.42507826373877,4196.721215540543,0.007399780675768852,-6243.1640625,0.3953028917312622,6.564790725708008,359.1671142578125,0.7,-0.3200458490315209,-0.3006152588223243,11.0,595.3134765625
11.352,-34.55404629242626,-58.4250773832847,4194.897872448899,-0.02125813439488411,-6254.52587890625,0.3288252353668213,6.406330108642578,359.9594421386719,0.7,-0.31948737046329034,-0.30228192920538133,11.0,596.055908203125
11.401,-34.554046285665834,-58.425076609552335,4193.240384281613,-0.0418936051428318,-6264.8369140625,0.27361831068992615,6.196619033813477,0.6837765574455261,0.7,-0.31842809205105727,0.5,11.0,596.4659423828125
11.45,-34.55404629164679,-58.42507580913954,4191.608631459996,-0.05826021730899811,-6275.12353515625,0.2211151272058487,5.949663162231445,1.4440523386001587,0.7,-0.31702922446434656,-0.016840248138349473,11.0,596.7481079101562
11.5,-34.554046309335696,-58.425075088768025,4190.023437911645,-0.07115206867456436,-6285.46044921875,0.14008799195289612,5.66815710067749,2.5530855655670166,0.7,-0.3153441560585035,-0.024216613793757537,11.0,596.8715209960938
11.55,-34.55404633992286,-58.42507431503566,4188.3933049961925,-0.08079081028699875,-6295.4775390625,0.04772113636136055,5.381881237030029,3.8972864151000977,0.7,-0.3135865702550076,-0.030282950798079307,11.0,596.5820922851562
11.601,-34.55404638306707,-58.42507348794244,4186.768532311544,-0.08726967126131058,-6304.25,-0.045132678002119064,5.133022785186768,5.381771087646484,0.7,-0.31201181421220936,-0.04092942719270405,11.0,596.1064453125
11.652,-34.554046447615306,-58.42507258080794,4184.919521018863,-0.0938054770231247,-6317.171875,-0.14694052934646606,4.92835807800293,7.20562219619751,0.7,-0.31100036648909446,-0.03448796470231646,11.0,595.1502685546875
11.701,-34.55404650730296,-58.425071913797275,4183.522701998241,-0.0938027873635292,-6326.13427734375,-0.21976406872272491,4.846254825592041,8.658339500427246,0.7,-0.31076324261500116,-0.04047517523836144,11.0,594.3935546875
11.752,-34.554046602166466,-58.425071006662776,4181.647870131768,-0.08755207061767578,-6337.67919921875,-0.3131723701953888,4.84642219543457,10.702178955078125,0.7,-0.31130697763730575,-0.04508600859413661,11.0,593.3235473632812
11.802,-34.5540466993774,-58.42507017956956,4180.001752763987,-0.07751146703958511,-6347.419921875,-0.3928884267807007,4.950336456298828,12.579764366149902,0.7,-0.31263466988126853,-0.0475144031078326,11.0,592.427734375
11.851,-34.554046808518606,-58.42506932579591,4178.369404797442,-0.06269128620624542,-6356.9931640625,-0.4726802706718445,5.134167194366455,14.519174575805664,0.7,-0.31460082555685787,-0.05180487248496182,11.0,591.80126953125
11.902,-34.55404693168527,-58.42506852538312,4176.717014059424,-0.04262882098555565,-6366.7421875,-0.558158278465271,5.3773674964904785,16.57000732421875,0.7,-0.31707628795558424,-0.05488265778735826,11.0,591.544921875
11.951,-34.554047061439036,-58.42506775165075,4175.133696489036,-0.017868556082248688,-6376.0576171875,-0.6477227807044983,5.634548664093018,18.62537956237793,0.7,-0.3196810581961761,-0.05721969102962668,11.0,591.6466064453125
12.002,-34.55404720577163,-58.42506689787711,4173.514856093563,0.010803703218698502,-6384.88720703125,-0.7496335506439209,5.887204647064209,20.826568603515625,0.7,-0.3222766323093773,-0.061788024205029726,11.0,592.176025390625
12.051,-34.554047367085865,-58.425066017423035,4171.842097318731,0.04671857878565788,-6394.14111328125,-0.8669838309288025,6.099029541015625,23.211772918701172,0.7,-0.32457435961300135,-0.06680954896355466,11.0,593.0618286132812
12.102,-34.55404755862977,-58.42506513696896,4170.001670155674,0.09404507279396057,-6404.41064453125,-1.0082799196243286,6.2331132888793945,25.960927963256836,0.7,-0.326344432695872,-0.06991046498938022,11.0,594.3018798828125
12.151,-34.55404774337953,-58.42506428319531,4168.345850667916,0.1429668664932251,-6413.52734375,-1.1413270235061646,6.236701965332031,28.532623291015625,0.7,-0.3269725864588971,-0.07633886928982553,11.0,595.4408569335938
12.2,-34.55404793517739,-58.425063509462944,4166.726711310446,0.19820931553840637,-6422.56884765625,-1.2694398164749146,6.118553161621094,31.1151065826416,0.7,-0.32662933439443353,-0.07739236056973929,11.0,596.3973388671875
12.252,-34.554048145784,-58.425062602328445,4165.045706065372,0.2602009177207947,-6431.6142578125,-1.3910431861877441,5.869378089904785,33.835601806640625,0.7,-0.3252297881047505,-0.08084458080943117,11.0,597.1953735351562
12.302,-34.55404836722694,-58.42506177523523,4163.369069480337,0.32972031831741333,-6440.76953125,-1.4917117357254028,5.509862899780273,36.556358337402344,0.7,-0.32290244231677445,-0.08387973931828474,11.0,597.8046875
12.35,-34.55404860057555,-58.42506092146158,4161.686640077271,0.4064459800720215,-6450.01416015625,-1.564287781715393,5.068624973297119,39.257667541503906,0.7,-0.31986330953175784,-0.08720343608126582,11.0,598.2469482421875
12.4,-34.55404883782053,-58.42506014772921,4160.050944481976,0.48895081877708435,-6459.22216796875,-1.602813959121704,4.599785327911377,41.82377243041992,0.7,-0.3165712848013579,-0.08492532431474309,11.0,598.5230712890625
12.451,-34.55404908947063,-58.42505934731642,4158.386290986091,0.572661817073822,-6468.00390625,-1.6080633401870728,4.1226582527160645,44.34611511230469,0.7,-0.31315683011211626,-0.08713968112388523,11.0,598.606201171875
12.501,-34.55404935254974,-58.42505849354278,4156.712062390521,0.664360761642456,-6477.16162109375,-1.5805749893188477,3.683152914047241,46.773170471191406,0.7,-0.31000468954031796,-0.0865484160373968,11.0,598.4922485351562
12.552,-34.55404966290841,-58.42505753304742,4154.810296614654,0.7729082703590393,-6487.583984375,-1.514918565750122,3.277721643447876,49.379634857177734,0.7,-0.307130514706865,-0.08577397656214669,11.0,598.2271118164062
12.602,-34.55404994579182,-58.42505673263463,4153.135326616466,0.8701689839363098,-6496.6806640625,-1.433454155921936,3.0330653190612793,51.54008483886719,0.7,-0.3054690547078067,-0.08553917484712655,11.0,597.8563842773438
12.652,-34.55405023323208,-58.42505590554141,4151.481827287935,0.9681839346885681,-6505.74267578125,-1.3379791975021362,2.9118261337280273,53.5547981262207,0.7,-0.3047895277453053,-0.08324848975855004,11.0,597.4852905273438
12.7,-34.55405050023416,-58.42505521185032,4149.983883870766,1.0512837171554565,-6513.41552734375,-1.2442470788955688,2.908574104309082,55.29263687133789,0.7,-0.3050183630997822,-0.08390137445889043,11.0,597.3125610351562
12.752,-34.5540508476601,-58.425054331396254,4148.0814666915685,1.1591945886611938,-6523.46728515625,-1.1225281953811646,3.0373945236206055,57.407108306884766,0.7,-0.30639160348200717,-0.08340993463672337,11.0,597.0972900390625
12.801,-34.55405116337873,-58.42505355766389,4146.392341667786,1.2511603832244873,-6532.197265625,-1.0174081325531006,3.2524702548980713,59.22191619873047,0.7,-0.308426103935539,-0.08498639035443281,11.0,596.9494018554688
12.851,-34.554051474259545,-58.42505273057066,4144.7613103808835,1.3382378816604614,-6540.70458984375,-0.9227747321128845,3.5200443267822266,60.94247055053711,0.7,-0.31091430933596664,-0.08359944711347014,11.0,596.8865966796875
12.902,-34.554051796842366,-58.42505201019915,4143.099294676445,1.4175751209259033,-6548.73388671875,-0.8363633155822754,3.820416212081909,62.68387985229492,0.7,-0.3136864076842503,-0.08619433519158459,11.0,596.853759765625
12.952,-34.55405216730765,-58.4250511564255,4141.225341545418,1.5054616928100586,-6558.05419921875,-0.753148078918457,4.150201797485352,64.65325927734375,0.7,-0.3167836814451538,-0.08733680089361162,11.0,596.75830078125
13.001,-34.55405249752251,-58.42505040937356,4139.584222960286,1.5759707689285278,-6565.93017578125,-0.6930181980133057,4.39795446395874,66.39305877685547,0.7,-0.3191877208117554,-0.0893765878873061,11.0,596.6973266601562
13.05,-34.55405284270529,-58.42504968900205,4137.8967684088275,1.6451804637908936,-6574.0732421875,-0.6430813074111938,4.586997032165527,68.20356750488281,0.7,-0.3211476311710776,-0.09167355688794063,11.0,596.8197021484375
13.101,-34.5540531822212,-58.425048968630534,4136.263979156502,1.7079267501831055,-6581.859375,-0.6047409772872925,4.690442085266113,69.97718048095703,0.7,-0.322431124142581,-0.09247396136076097,11.0,597.03955078125
13.15,-34.55405353454859,-58.42504827493945,4134.597030758858,1.7643067836761475,-6589.2626953125,-0.5730177760124207,4.706779479980469,71.80453491210938,0.7,-0.3230181756942545,-0.09513821518068301,11.0,597.3350830078125
13.203,-34.55405393659451,-58.42504750120708,4132.727752308361,1.8247145414352417,-6597.73388671875,-0.5425398349761963,4.619675159454346,73.8629150390625,0.7,-0.32282809547268243,-0.0966195517779179,11.0,597.8154296875
13.25,-34.55405430053199,-58.42504680751599,4131.064957060851,1.8739150762557983,-6605.12158203125,-0.5164392590522766,4.459480285644531,75.68795776367188,0.7,-0.32197931388175716,-0.09816196647615463,11.0,598.3720703125
13.3,-34.55405467599437,-58.425046167185755,4129.377227714285,1.9204412698745728,-6612.5888671875,-0.48762574791908264,4.234223365783691,77.51732635498047,0.7,-0.3205869103182581,-0.0998308132996732,11.0,598.8367919921875
13.35,-34.554055041316694,-58.42504552685553,4127.760250911117,1.9613851308822632,-6619.609375,-0.4550493657588959,3.979641914367676,79.22919464111328,0.7,-0.3189300263836675,-0.0992611247938183,11.0,599.1134643554688
13.402,-34.55405543068559,-58.42504485984486,4126.062211820856,2.0001509189605713,-6626.7080078125,-0.41386598348617554,3.6972286701202393,80.96517181396484,0.7,-0.31703752174654665,-0.0997685021504373,11.0,599.2923583984375
